[
{
  "name":"Acton Town Station",
  "address":"Acton Town Station, London Underground Ltd., Gunnersbury Lane, London, W3 8HN",
  "coordinates":["-.280251203536110600","51.502749773000570000"],
  "zone" : 3
},
{
  "name":"Aldgate Station",
  "address":"Aldgate Station, London Underground Ltd., Aldgate High St, London, EC3N 1AH",
  "coordinates":["-.075614184477749600","51.514271823083390000"],
  "zone" : 1
},
{
  "name":"Aldgate East Station",
  "address":"Aldgate East Station, London Underground Ltd., Whitechapel High St, London, E1 7PT",
  "coordinates":["-.072287119975365420","51.515233413796480000"],
  "zone" : 1
},
{
  "name":"Alperton Station",
  "address":"Alperton Station, London Underground Ltd., Ealing Rd, Wembley, Middlesex, HA0 4LL",
  "coordinates":["-.299486538678611470","51.540694766293470000"],
  "zone" : 4
},
{
  "name":"Amersham Station",
  "address":"Amersham Station, Stn Approach, Amersham, Bucks HP6 5AZ",
  "coordinates":["-.607478839102469000","51.674149710629730000"],
  "zone" : 9
},
{
  "name":"Angel Station",
  "address":"Angel Station, London Underground Ltd., City Rd, London, EC1V 1NE",
  "coordinates":["-.105789913665305300","51.532498868904300000"],
  "zone" : 1
},
{
  "name":"Archway Station",
  "address":"Archway Station, London Underground Ltd., Junction Rd, London, N19 5RQ",
  "coordinates":["-.135113518210335370","51.565426754533750000"],
  "zone" : 2
},
{
  "name":"Arnos Grove Station",
  "address":"Arnos Grove Station, London Underground Ltd., Bowes Rd, London, N11 1AN",
  "coordinates":["-.133516309581780070","51.616340261056756000"],
  "zone" : 4
},
{
  "name":"Arsenal Station",
  "address":"Arsenal Station, London Underground Ltd., Highbury Hill, London, N5 1LP",
  "coordinates":["-.105761988175557870","51.558498768776680000"],
  "zone" : 2
},
{
  "name":"Baker Street Station",
  "address":"Baker Street Station Marylebone Rd, London, NW1",
  "coordinates":["-.156900356057780880","51.523061248142790000"],
  "zone" : 1
},
{
  "name":"Balham Station",
  "address":"Balham Underground Station, London Underground Ltd., Balham High Rd, London, SW12 9BW",
  "coordinates":["-.153207552666472820","51.443328979635250000"],
  "zone" : 3
},
{
  "name":"Bank Station",
  "address":"Bank/Monument Complex, London Underground Ltd., Princes St, London, EC3V 3LA",
  "coordinates":["-.088915809045260000","51.513302371519344000"],
  "zone" : 1
},
{
  "name":"Barbican Station",
  "address":"Barbican Station, London Underground Ltd., Aldersgate St, London, EC1A 4JA",
  "coordinates":["-.097711123216248310","51.520145725324900000"],
  "zone" : 1
},
{
  "name":"Barking Station",
  "address":"Barking Station BR Station Parade, Longbridge Rd, Barking, Essex, IG11 8TU",
  "coordinates":[".080863182849410430","51.539451208515715000"],
  "zone" : 4
},
{
  "name":"Barkingside Station",
  "address":"Barkingside Station, London Underground Ltd., Stn Rd, Barkingside, Milford, Essex, IG6 1NB",
  "coordinates":[".088511013821779280","51.585785960390545000"],
  "zone" : 4
},
{
  "name":"Barons Court Station",
  "address":"Barons Court Station, London Underground Ltd., Pallister Rd, London, W14",
  "coordinates":["-.213606857361082370","51.490159942708935000"],
  "zone" : 2
},
{
  "name":"Bayswater Station",
  "address":"Bayswater Station, London Underground Ltd., Queensway, London, W2 4QH",
  "coordinates":["-.188038262221618460","51.512233058741060000"],
  "zone" : 1
},
{
  "name":"Becontree Station",
  "address":"Becontree Station, London Underground Ltd., Gale St, Dagenham, Essex, RM9 4TP",
  "coordinates":[".127400321155280580","51.540288535204700000"],
  "zone" : 5
},
{
  "name":"Belsize Park Station",
  "address":"Belsize Park Station, London Underground Ltd., Haverstock Hill, London, NW3 2AL",
  "coordinates":["-.164232306333818050","51.550426627718240000"],
  "zone" : 2
},
{
  "name":"Bermondsey Station",
  "address":"Bermondsey Station, London Underground Ltd., 142 - 154 Jamaica Rd, London, SE16 4RX",
  "coordinates":["-.063651350918079250","51.497949119581570000"],
  "zone" : 2
},
{
  "name":"Bethnal Green Station",
  "address":"Bethnal Green Underground Station, London Underground Ltd., Cambridge Heath Rd, London, E2 0ET",
  "coordinates":["-.055431117145884300","51.527195236069566000"],
  "zone" : 2
},
{
  "name":"Blackfriars Station",
  "address":"Blackfriars Underground Station, London Underground Ltd., 179 Queen Victoria St, London, EC4V 4DD",
  "coordinates":["-.103606731219862620","51.511490522247490000"],
  "zone" : 1
},
{
  "name":"Blackhorse Road Station",
  "address":"Blackhorse Road Underground Station, London Underground Ltd., Blackhorse Rd, London, E17 6ND",
  "coordinates":["-.040996340920370744","51.586951195438930000"],
  "zone" : 3
},
{
  "name":"Bond Street Station",
  "address":"Bond Street Station, London Underground Ltd., Oxford St, London, W1R 1FE",
  "coordinates":["-.149332354586202300","51.513804535388070000"],
  "zone" : 1
},
{
  "name":"Borough Station",
  "address":"Borough Station, London Underground Ltd., Borough High St, London, SE1 1JX",
  "coordinates":["-.093702664758373440","51.501193998928510000"],
  "zone" : 1
},
{
  "name":"Boston Manor Station",
  "address":"Boston Manor Station, London Underground Ltd., Boston Manor Rd, Brentford, Middx, TW8 9LQ",
  "coordinates":["-.324763573796374050","51.495696382188164000"],
  "zone" : 4
},
{
  "name":"Bounds Green Station",
  "address":"Bounds Green Station, London Underground Ltd., Bounds Green Rd, London, N11 2EU",
  "coordinates":["-.124218963208536690","51.607090556952755000"],
  "zone" : 3
},
{
  "name":"Bow Road Station",
  "address":"Bow Road Station, London Underground Ltd., Bow Road, London, E3 4DH",
  "coordinates":["-.024823746874528683","51.526800254826064000"],
  "zone" : 2
},
{
  "name":"Brent Cross Station",
  "address":"Brent Cross Station, London Underground Ltd., Highfield Avenue, London, NW11 9UA",
  "coordinates":["-.213455833755365300","51.576800471443870000"],
  "zone" : 3
},
{
  "name":"Brixton Station",
  "address":"Brixton Underground Station, London Underground Ltd., Brixton Rd, London, SW9 8HE",
  "coordinates":["-.114635581578615600","51.462581333631725000"],
  "zone" : 2
},
{
  "name":"Buckhurst Hill Station",
  "address":"Buckhurst Hill Station, London Underground Ltd., Victoria Rd, Buckhurst Hill, Essex, IG9 5ET",
  "coordinates":[".046743856240495990","51.626517330409435000"],
  "zone" : 5
},
{
  "name":"Burnt Oak Station",
  "address":"Burnt Oak Station, London Underground Ltd., Watling Avenue, Edgware, Middx, HA8 0LA",
  "coordinates":["-.264198758145630100","51.602681099702550000"],
  "zone" : 4
},
{
  "name":"Caledonian Road Station",
  "address":"Caledonian Road Underground Station, London Underground Ltd., Caledonian Rd, London, N7 9BA",
  "coordinates":["-.118312333133271940","51.548421318403776000"],
  "zone" : 2
},
{
  "name":"Camden Town Station",
  "address":"Camden Town Station, London Underground Ltd., Camden High St, London, NW1 8NH",
  "coordinates":["-.142726148730286300","51.539403522631090000"],
  "zone" : 2
},
{
  "name":"Canada Water Station",
  "address":"Canada Water Station, London Underground Ltd., Deal Porter Way, Surrey Quays, London, SE16",
  "coordinates":["-.049705986794378270","51.497888681995114000"],
  "zone" : 2
},
{
  "name":"Canary Wharf Station",
  "address":"Canary Wharf Station, London Underground Ltd., Heron Quays Road, Canary Wharf, London, E14 4HJ",
  "coordinates":["-.019431816253263262","51.503550485647594000"],
  "zone" : 2
},
{
  "name":"Canning Town Station",
  "address":"Canning Town Station, London Underground Ltd., Silvertown Way, Canning Town, London, E16 1DQ",
  "coordinates":[".008171036532588041","51.513837129289570000"],
  "zone" : 3
},
{
  "name":"Cannon Street Station",
  "address":"Cannon Street Underground Station, London Underground Ltd., Cannon St, London, EC4N 6AP",
  "coordinates":["-.090694850680980680","51.511433722337300000"],
  "zone" : 1
},
{
  "name":"Canons Park Station",
  "address":"Canons Park Station, London Underground Ltd., Whitchurch Lane, Edgware, Middx, HA8 6RN",
  "coordinates":["-.294653740878426550","51.607759515215320000"],
  "zone" : 5
},
{
  "name":"Chalfont & Latimer Station",
  "address":"Chalfont & Latimer Station, London Underground Ltd., Station Approach, Little Chalfont, Amersham, Bucks, HP7 9PR",
  "coordinates":["-.560534956448776200","51.668025473926090000"],
  "zone" : 8
},
{
  "name":"Chalk Farm Station",
  "address":"Chalk Farm Station, London Underground Ltd., Adelaide Rd, London, NW3 2BP",
  "coordinates":["-.153728009451251480","51.544083102422630000"],
  "zone" : 2
},
{
  "name":"Chancery Lane Station",
  "address":"Chancery Lane Station, London Underground Ltd., High Holborn, London, WC1V 6DR",
  "coordinates":["-.111677427383970640","51.518123230614440000"],
  "zone" : 1
},
{
  "name":"Charing Cross Station",
  "address":"Charing Cross Underground Station, London Underground Ltd., Trafalgar Square, London, WC2N 5DR",
  "coordinates":["-.124754686624366030","51.508593207603190000"],
  "zone" : 1
},
{
  "name":"Chesham Station",
  "address":"Chesham Station, London Underground Ltd., Station Approach, Chesham, Bucks, HP5 1DH",
  "coordinates":["-.611219246324909900","51.705030454829610000"],
  "zone" : 9
},
{
  "name":"Chigwell Station",
  "address":"Chigwell Station, London Underground Ltd., Station Rd, Chigwell, Essex, IG7 6NT",
  "coordinates":[".074526611263722940","51.617871925405100000"],
  "zone" : 4
},
{
  "name":"Chiswick Park Station",
  "address":"Chiswick Park Station, London Underground Ltd., Bollo Lane, London, W4 5NE",
  "coordinates":["-.267746873913726140","51.494300591745144000"],
  "zone" : 3
},
{
  "name":"Chorleywood Station",
  "address":"Chorleywood Station, London Underground Ltd., Station Approach, Chorleywood, Rickmansworth, Herts WD3 5ND",
  "coordinates":["-.518365989763054100","51.654217860774500000"],
  "zone" : 7
},
{
  "name":"Clapham Common Station",
  "address":"Clapham Common Station, London Underground Ltd., The Pavement, London, SW4 7AJ",
  "coordinates":["-.138311459464252400","51.461727933283946000"],
  "zone" : 2
},
{
  "name":"Clapham North Station",
  "address":"Clapham North Station, London Underground Ltd., Clapham High St, London, SW4 7TS",
  "coordinates":["-.129531053727598040","51.464843732027760000"],
  "zone" : 2
},
{
  "name":"Clapham South Station",
  "address":"Clapham South Station, London Underground Ltd., Balham Hill, London, SW12 9DU",
  "coordinates":["-.147982098639174410","51.452599834714476000"],
  "zone" : 2
},
{
  "name":"Cockfosters Station",
  "address":"Cockfosters Station, London Underground Ltd., Cockfosters Rd, Barnet, Herts, EN4 0DZ",
  "coordinates":["-.149614715155877680","51.651687534574954000"],
  "zone" : 5
},
{
  "name":"Colindale Station",
  "address":"Colindale Station, London Underground Ltd., Colindale Avenue, London, NW9 5HR",
  "coordinates":["-.250142587760251700","51.595286518799250000"],
  "zone" : 4
},
{
  "name":"Colliers Wood Station",
  "address":"Colliers Wood Station, London Underground Ltd., Colliers Wood High St, London, SW19 2HR",
  "coordinates":["-.177700936628786360","51.418071885122640000"],
  "zone" : 3
},
{
  "name":"Covent Garden Station",
  "address":"Covent Garden Station, London Underground Ltd., Long Acre, London, WC2E 9JT",
  "coordinates":["-.124159260603112690","51.512909586141590000"],
  "zone" : 1
},
{
  "name":"Croxley Station",
  "address":"Croxley Station, London Underground Ltd., Watford Road, Rickmansworth, Herts, WD3 3DY",
  "coordinates":["-.441710992609101700","51.647046338116360000"],
  "zone" : 7
},
{
  "name":"Dagenham East Station",
  "address":"Dagenham East Station, London Underground Ltd., North Rainham Rd, Dagenham, Essex, RM10 8AA",
  "coordinates":[".165874869677022780","51.544116734223610000"],
  "zone" : 5
},
{
  "name":"Dagenham Heathway Station",
  "address":"Dagenham Heathway Station, London Underground Ltd., Heathway, Dagenham, Essex, RM9 5AN",
  "coordinates":[".147684194913217710","51.541627413616190000"],
  "zone" : 5
},
{
  "name":"Debden Station",
  "address":"Debden Station, London Underground Ltd., Chigwell Lane, Loughton, Essex, IG10 3TG",
  "coordinates":[".083837809879712370","51.645434322048956000"],
  "zone" : 6
},
{
  "name":"Dollis Hill Station",
  "address":"Dollis Hill Station, London Underground Ltd., Hamilton Rd, London, NW10 5NB",
  "coordinates":["-.238797558508156870","51.551903559056100000"],
  "zone" : 3
},
{
  "name":"Ealing Broadway Station",
  "address":"Ealing Broadway Station, The Broadway, London, W5 2NU",
  "coordinates":["-.301500096369187100","51.514913033739160000"],
  "zone" : 3
},
{
  "name":"Ealing Common Station",
  "address":"Ealing Common Station, London Underground Ltd., Uxbridge Rd, London, W5 3LD",
  "coordinates":["-.288260381056999100","51.510124738537850000"],
  "zone" : 3
},
{
  "name":"Earl's Court Station",
  "address":"Earl's Court Station, London Underground Ltd., Earl's Court Rd, London, SW5 9QA",
  "coordinates":["-.193545854058733800","51.491803907898900000"],
  "zone" : 1
},
{
  "name":"East Acton Station",
  "address":"East Acton Station, London Underground Ltd., Erconwald St, London, W12 0BP",
  "coordinates":["-.247513203550207700","51.516582199054170000"],
  "zone" : 2
},
{
  "name":"East Finchley Station",
  "address":"East Finchley Station, London Underground Ltd., High Rd, London, N2 0NW",
  "coordinates":["-.164738305623223720","51.587271719132026000"],
  "zone" : 3
},
{
  "name":"East Ham Station",
  "address":"East Ham Station, London Underground Ltd., High Street North, London, E6 2JA",
  "coordinates":[".051475548835470040","51.538926036547580000"],
  "zone" : 4
},
{
  "name":"East Putney Station",
  "address":"East Putney Station, Upper Richmond Rd, London, SW15",
  "coordinates":["-.211003174222271470","51.458804746350000000"],
  "zone" : 2
},
{
  "name":"Eastcote Station",
  "address":"Eastcote Station, London Underground Ltd., Field End Rd, Ruislip, Middx, HA5 1QZ",
  "coordinates":["-.396844627186990200","51.576493044501650000"],
  "zone" : 5
},
{
  "name":"Edgware Station",
  "address":"Edgware Station, London Underground Ltd., Station Rd, Edgware, Middx, HA8 7AW",
  "coordinates":["-.274976006045290200","51.613623079849460000"],
  "zone" : 5
},
{
  "name":"Elephant & Castle Station",
  "address":"Elephant & Castle Underground Station, London Underground Ltd., London Rd, London, SE1 6LW",
  "coordinates":["-.100729603883341970","51.495777047270740000"],
  "zone" : 1
},
{
  "name":"Elm Park Station",
  "address":"Elm Park Station, London Underground Ltd., The Broadway, Hornchurch, Essex, RM12 4RW",
  "coordinates":[".199180459239238080","51.549801253986864000"],
  "zone" : 6
},
{
  "name":"Embankment Station",
  "address":"Embankment Station, London Underground Ltd., Villiers St, London, WC2N 6NS",
  "coordinates":["-.122360215814178660","51.507241796748396000"],
  "zone" : 1
},
{
  "name":"Epping Station",
  "address":"Epping Station, London Underground Ltd., Station Rd, Epping, Essex, CM16 4HW",
  "coordinates":[".113866915583570900","51.693624607565480000"],
  "zone" : 6
},
{
  "name":"Euston Station",
  "address":"Euston Underground Station, London Underground Ltd., Eversholt St, London, NW1 2DU",
  "coordinates":["-.133289718799315530","51.528596260899460000"],
  "zone" : 1
},
{
  "name":"Euston Square Station",
  "address":"Euston Square Station, London Underground Ltd., Euston Rd, London, NW1 2BN",
  "coordinates":["-.135836140694320340","51.525561006016105000"],
  "zone" : 1
},
{
  "name":"Fairlop Station",
  "address":"Fairlop Station, London Underground Ltd., Forest Rd, Ilford, Essex, IG6 3HD",
  "coordinates":[".090929226191151620","51.595680931861040000"],
  "zone" : 4
},
{
  "name":"Farringdon Station",
  "address":"Farringdon Station, London Underground Ltd., Cowcross St, London, EC1M 6BY",
  "coordinates":["-.105065254236880330","51.520444754930790000"],
  "zone" : 1
},
{
  "name":"Finchley Central Station",
  "address":"Finchley Central Station, London Underground Ltd., Regents Park Road, London, N3 2RY",
  "coordinates":["-.192447107072110800","51.600976420785250000"],
  "zone" : 4
},
{
  "name":"Finchley Road Station",
  "address":"Finchley Road Underground Station, London Underground Ltd., Finchley Road, London, NW3 6OP",
  "coordinates":["-.180494175915812260","51.547064834336794000"],
  "zone" : 2
},
{
  "name":"Finsbury Park Station",
  "address":"Finsbury Park Underground Station, London Underground Ltd., Wells Terrace, London, N4 3JU",
  "coordinates":["-.106512100282158470","51.564401648484590000"],
  "zone" : 2
},
{
  "name":"Fulham Broadway Station",
  "address":"Fulham Broadway Station, London Underground Ltd., Fulham Broadway, London, SW6 1BY",
  "coordinates":["-.194956844603215860","51.480529784298170000"],
  "zone" : 2
},
{
  "name":"Gants Hill Station",
  "address":"Gants Hill Station, London Underground Ltd., Cranbrook Rd, Ilford, Essex, IG2 6UD",
  "coordinates":[".066115533982912160","51.576487548031560000"],
  "zone" : 4
},
{
  "name":"Gloucester Road Station",
  "address":"Gloucester Road Station, London Underground Ltd., Gloucester Rd, London, SW7 4SF",
  "coordinates":["-.182989526482896930","51.494239783916480000"],
  "zone" : 1
},
{
  "name":"Golders Green Station",
  "address":"Golders Green Station, London Underground Ltd., North End Rd, London, NW11 7RN",
  "coordinates":["-.193993261252232000","51.572221393232800000"],
  "zone" : 3
},
{
  "name":"Goldhawk Road Station",
  "address":"Goldhawk Road Station, London Underground Ltd., Goldhawk Rd, London, W12 8EG",
  "coordinates":["-.226748329203583370","51.501952197301270000"],
  "zone" : 2
},
{
  "name":"Goodge Street Station",
  "address":"Goodge Street Station, London Underground Ltd., 75 Tottenham Court Rd, London, W1P 9PA",
  "coordinates":["-.134662152092394320","51.520424996045500000"],
  "zone" : 1
},
{
  "name":"Grange Hill Station",
  "address":"Grange Hill Station, London Underground Ltd., Manor Rd, Chigwell, Essex IG7 5QB",
  "coordinates":[".092146407242701880","51.613349857801460000"],
  "zone" : 4
},
{
  "name":"Great Portland Street Station",
  "address":"Great Portland Street Station, London Underground Ltd., Euston Rd, London, NW1",
  "coordinates":["-.143956086447368930","51.523720314628890000"],
  "zone" : 1
},
{
  "name":"Green Park Station",
  "address":"Green Park Station, London Underground Ltd., Piccadilly, London, W1V 9HG",
  "coordinates":["-.142927422207874380","51.506850108502306000"],
  "zone" : 1
},
{
  "name":"Greenford Station",
  "address":"Greenford Station, London Underground Ltd., Oldfield Lane, Greenford, Middx, UB6 8PX",
  "coordinates":["-.346444146567460000","51.542302026759124000"],
  "zone" : 4
},
{
  "name":"Hainault Station",
  "address":"Hainault Station, London Underground Ltd., New North Rd, Ilford, Essex, IG6 3BD",
  "coordinates":[".093119014044497110","51.603727217978240000"],
  "zone" : 4
},
{
  "name":"Hampstead Station",
  "address":"Hampstead Station, London Underground Ltd., Hampstead High St, London, NW3 1QG",
  "coordinates":["-.178219762924764630","51.556688476264430000"],
  "zone" : 2
},
{
  "name":"Hanger Lane Station",
  "address":"Hanger Lane Station, London Underground Ltd., Hanger Lane, London, W5 1DL",
  "coordinates":["-.293007522620696200","51.530006403588040000"],
  "zone" : 3
},
{
  "name":"Hatton Cross Station",
  "address":"Hatton Cross Station, London Underground Ltd., Great South West Rd, Feltham, Middx,  ",
  "coordinates":["-.423409349454662700","51.466614173462760000"],
  "zone" : 5
},
{
  "name":"Heathrow Terminal 4 Station",
  "address":"Heathrow T4 Station, London Underground Ltd., Hthrw Airport complex, Trmnl 4, Hounslow, Middx",
  "coordinates":["-.446058766977937300","51.458553104092005000"],
  "zone" : 6
},
{
  "name":"Hendon Central Station",
  "address":"Hendon Central Station, London Underground Ltd., Queens Rd, London, NW4 3AS",
  "coordinates":["-.226496207803293200","51.583293830072000000"],
  "zone" : 3
},
{
  "name":"High Barnet Station",
  "address":"High Barnet Station, London Underground Ltd., Barnet Hill, Barnet, Herts, EN5 5RP",
  "coordinates":["-.194751021947520400","51.650601170588565000"],
  "zone" : 5
},
{
  "name":"High Street Kensington Station",
  "address":"High Street Kensington Station, London Underground Ltd., Kensington High St, London, W8 5SA",
  "coordinates":["-.192503135590810750","51.500673420263205000"],
  "zone" : 1
},
{
  "name":"Highbury & Islington Station",
  "address":"Highbury & Islington Underground Station, London Underground Ltd., Holloway Rd, London, N5 1RA",
  "coordinates":["-.103964238784979300","51.546229491737870000"],
  "zone" : 2
},
{
  "name":"Highgate Station",
  "address":"Highgate Station, London Underground Ltd., Archway Rd, London, N6",
  "coordinates":["-.146638422561128380","51.577597829618790000"],
  "zone" : 3
},
{
  "name":"Hillingdon Station",
  "address":"Hillingdon Station, London Underground Ltd., Long Lane, Hillingdon, Uxbridge, Middlesex, UB10 9NR",
  "coordinates":["-.449926295661858930","51.553716844570935000"],
  "zone" : 6
},
{
  "name":"Holborn Station",
  "address":"Holborn Station, London Underground Ltd., Kingsway, London, WC2B 6AA",
  "coordinates":["-.120008849244825100","51.517438783075970000"],
  "zone" : 1
},
{
  "name":"Holland Park Station",
  "address":"Holland Park Station, London Underground Ltd., Holland Park Avenue, London, W11 3RB",
  "coordinates":["-.205728672749766300","51.507334043150680000"],
  "zone" : 2
},
{
  "name":"Holloway Road Station",
  "address":"Holloway Road Station, London Underground Ltd., Holloway Rd, London, N7 8HS",
  "coordinates":["-.112925632539152260","51.552750537878600000"],
  "zone" : 2
},
{
  "name":"Hornchurch Station",
  "address":"Hornchurch Station, London Underground Ltd., Station Lane, Hornchurch, Essex, RM12 6LS",
  "coordinates":[".219018986707928050","51.554005256006330000"],
  "zone" : 6
},
{
  "name":"Hounslow Central Station",
  "address":"Hounslow Central Station, London Underground Ltd., Lampton Rd, Hounslow, Middx, TW3 1JG",
  "coordinates":["-.366922420319065300","51.471083300365436000"],
  "zone" : 4
},
{
  "name":"Hounslow East Station",
  "address":"Hounslow East Station, London Underground Ltd., Kingsley Rd, Hounslow, Middx, TW3 4AB",
  "coordinates":["-.356695318244920060","51.473170615833226000"],
  "zone" : 4
},
{
  "name":"Hounslow West Station",
  "address":"Hounslow West Station, London Underground Ltd., Bath Rd, Hounslow, Middx, TW3 3DH",
  "coordinates":["-.385731868407531600","51.473034798965720000"],
  "zone" : 5
},
{
  "name":"Hyde Park Corner Station",
  "address":"Hyde Park Corner Station, London Underground Ltd., Knightsbridge, London, SW1X 7LY",
  "coordinates":["-.152748811981766980","51.502760411212570000"],
  "zone" : 1
},
{
  "name":"Ickenham Station",
  "address":"Ickenham Station, London Underground Ltd., Glebe Avenue, Uxbridge, Middx, UB10 8PD",
  "coordinates":["-.442026555689012170","51.561984742559240000"],
  "zone" : 6
},
{
  "name":"Kennington Station",
  "address":"Kennington Station, London Underground Ltd., Kennington Park Rd, London, SE11 4QJ",
  "coordinates":["-.105485152526283220","51.488119530611540000"],
  "zone" : 2
},
{
  "name":"Kentish Town Station",
  "address":"Kentish Town Underground Station, London Underground Ltd., Kentish Town Rd, London, NW5 2AA",
  "coordinates":["-.140464192953272140","51.550303762237870000"],
  "zone" : 2
},
{
  "name":"Kilburn Station",
  "address":"Kilburn Station, London Underground Ltd., Shootup Hill, London, NW6 7QL",
  "coordinates":["-.204633341254655960","51.546879502456840000"],
  "zone" : 2
},
{
  "name":"Kilburn Park Station",
  "address":"Kilburn Park Station, London Underground Ltd., Cambridge Avenue, London, NW6 5AD",
  "coordinates":["-.193965947368527200","51.535069084357000000"],
  "zone" : 2
},
{
  "name":"Kingsbury Station",
  "address":"Kingsbury Station, London Underground Ltd., Kingsbury Rd, London, NW9 9EG",
  "coordinates":["-.278799057434066500","51.584756866190325000"],
  "zone" : 4
},
{
  "name":"Knightsbridge Station",
  "address":"Knightsbridge Station, London Underground Ltd., Sloane St, London, SW1",
  "coordinates":["-.160507091328832150","51.501551433201136000"],
  "zone" : 1
},
{
  "name":"Ladbroke Grove Station",
  "address":"Ladbroke Grove Station, London Underground Ltd., Ladbroke Grove, London, W10 6HJ",
  "coordinates":["-.210861917848587150","51.517188449881736000"],
  "zone" : 2
},
{
  "name":"Lambeth North Station",
  "address":"Lambeth North Station, London Underground Ltd., 110 Westminster Bridge Rd, London, SE1 7XG",
  "coordinates":["-.111760270277701970","51.499058148698570000"],
  "zone" : 1
},
{
  "name":"Lancaster Gate Station",
  "address":"Lancaster Gate Station, London Underground Ltd., Bayswater Rd, London, W2",
  "coordinates":["-.175428659257816700","51.511821534588610000"],
  "zone" : 1
},
{
  "name":"Latimer Road Station",
  "address":"Latimer Road Station, London Underground Ltd., Bramley Rd, London, W10 6SZ",
  "coordinates":["-.217779301792146050","51.513543593897175000"],
  "zone" : 2
},
{
  "name":"Leicester Square Station",
  "address":"Leicester Square Station, London Underground Ltd., Cranbourn St, London, WC2H 0AP",
  "coordinates":["-.128235532172760460","51.511221028367200000"],
  "zone" : 1
},
{
  "name":"Leyton Station",
  "address":"Leyton Underground Station, London Underground Ltd., High Rd, Leyton, London, E10 5PS",
  "coordinates":["-.005619879781309080","51.556432927054910000"],
  "zone" : 3
},
{
  "name":"Leytonstone Station",
  "address":"Leytonstone Station, London Underground Ltd., Church Lane, London, E11 1HE",
  "coordinates":[".008215047486340644","51.568185263674590000"],
  "zone" : 3
},
{
  "name":"Liverpool Street Station",
  "address":"Liverpool Street Underground Station Central, London Underground Ltd., Liverpool Street, London, EC2M 7PP",
  "coordinates":["-.082965709456943840","51.517351230751740000"],
  "zone" : 1
},
{
  "name":"London Bridge Station",
  "address":"London Bridge Underground Station, London Underground Ltd., 21 Duke St Hill, London, SE1 2SW",
  "coordinates":["-.086922404191941930","51.505499353249796000"],
  "zone" : 1
},
{
  "name":"Loughton Station",
  "address":"Loughton Station, London Underground Ltd., Old Station Rd, Roding Rd, Loughton, Essex, IG10 4PD",
  "coordinates":[".055311997154570370","51.641512759080584000"],
  "zone" : 6
},
{
  "name":"Maida Vale Station",
  "address":"Maida Vale Station, London Underground Ltd., Elgin Avenue, London, W9 1JS",
  "coordinates":["-.185625902229911570","51.529760016810314000"],
  "zone" : 2
},
{
  "name":"Manor House Station",
  "address":"Manor House Station, London Underground Ltd., Green Lanes, London, N4 1BZ",
  "coordinates":["-.095712466704881360","51.570756005284366000"],
  "zone" : 2
},
{
  "name":"Mansion House Station",
  "address":"Mansion House Station, London Underground Ltd., 38 Cannon St, London, EC4N 6JD",
  "coordinates":["-.094187135312932570","51.512021200956030000"],
  "zone" : 1
},
{
  "name":"Marble Arch Station",
  "address":"Marble Arch Station, London Underground Ltd., Oxford St, London, W1R 1DD",
  "coordinates":["-.158438046626587060","51.513543293181170000"],
  "zone" : 1
},
{
  "name":"Marylebone Station",
  "address":"Marylebone Underground Station, London Underground Ltd., Harewood Row, London, NW1 6JP",
  "coordinates":["-.163104487142123720","51.522223341970424000"],
  "zone" : 1
},
{
  "name":"Mile End Station",
  "address":"Mile End Station, London Underground Ltd., Mile End Rd, London, E3 4DH",
  "coordinates":["-.033404170381106150","51.525091871834480000"],
  "zone" : 2
},
{
  "name":"Mill Hill East Station",
  "address":"Mill Hill East Station, London Underground Ltd., Bittacy Hill, London, NW7 1BS",
  "coordinates":["-.209894419946043500","51.608258895239280000"],
  "zone" : 4
},
{
  "name":"Monument Station",
  "address":"Monument Station, London Underground Ltd., King William St, London, EC4R 9AA",
  "coordinates":["-.088942732741562510","51.513347819184280000"],
  "zone" : 1
},
{
  "name":"Moor Park Station",
  "address":"Moor Park Station, London Underground Ltd., Sandy Lodge Lane, Rickmansworth, Herts, HA6 2JQ.",
  "coordinates":["-.432666848603920740","51.629731090477620000"],
  "zone" : 6
},
{
  "name":"Moorgate Station",
  "address":"Moorgate Station, London Underground Ltd., Moorfields, London, EC2Y 9AE",
  "coordinates":["-.089006315013091150","51.518367249884620000"],
  "zone" : 1
},
{
  "name":"Morden Station",
  "address":"Morden Underground Station, London Underground Ltd., London Rd, Morden, Surrey, SM4 5AZ",
  "coordinates":["-.194790700834515200","51.402336940766870000"],
  "zone" : 4
},
{
  "name":"Mornington Crescent Station",
  "address":"Mornington Crescent Station, London Underground Ltd., Eversholt St, London, NW1 2JA",
  "coordinates":["-.138842529989899570","51.534206610602570000"],
  "zone" : 2
},
{
  "name":"Neasden Station",
  "address":"Neasden Station, London Underground Ltd., Neasden Lane, London, NW10 1PH",
  "coordinates":["-.249782872822431580","51.553965717461770000"],
  "zone" : 3
},
{
  "name":"Newbury Park Station",
  "address":"Newbury Park Station, London Underground Ltd., Eastern Avenue, Ilford, Essex, IG2 7RN",
  "coordinates":[".090337313681270550","51.575572493610600000"],
  "zone" : 4
},
{
  "name":"North Acton Station",
  "address":"North Acton Station, London Underground Ltd., Victoria Rd, London, W3 6UP",
  "coordinates":["-.259737385737795140","51.523365556364130000"],
  "zone" : 2
},
{
  "name":"North Ealing Station",
  "address":"North Ealing Station, London Underground Ltd., Station Road, London, W5 3AF",
  "coordinates":["-.289004979762560500","51.517555160358675000"],
  "zone" : 3
},
{
  "name":"North Greenwich Station",
  "address":"North Greenwich Station, London Underground Ltd., 5 Millenium Way, London, SE10 0PH",
  "coordinates":[".003607416938325964","51.500181823992640000"],
  "zone" : 2
},
{
  "name":"North Harrow Station",
  "address":"North Harrow Station, London Underground Ltd., Station Rd, North Harrow, Middx, HA2 7SR",
  "coordinates":["-.362223573258194200","51.584791846729885000"],
  "zone" : 5
},
{
  "name":"Northfields Station",
  "address":"Northfields Station, London Underground Ltd., Northfield Avenue, London, W13 9QU",
  "coordinates":["-.314156832664969850","51.499276482193580000"],
  "zone" : 3
},
{
  "name":"Northolt Station",
  "address":"Northolt Underground Station, London Underground Ltd., Mandeville Rd, Northolt, Middx, UB5 4AA",
  "coordinates":["-.368459834282661160","51.548150439002740000"],
  "zone" : 5
},
{
  "name":"Northwick Park Station",
  "address":"Northwick Park Station, London Underground Ltd., Northwick Avenue, Harrow, Middx, HA3 0AT",
  "coordinates":["-.318206356876206400","51.578592841487520000"],
  "zone" : 4
},
{
  "name":"Northwood Station",
  "address":"Northwood Station, London Underground Ltd., Station Approach, Green Lane, Northwood, Middx, HA6 2XL",
  "coordinates":["-.423860793851574430","51.611159228903716000"],
  "zone" : 4
},
{
  "name":"Northwood Hills Station",
  "address":"Northwood Hills Station, London Underground Ltd., Joel St, Northwood, Middx, HA6 1NZ",
  "coordinates":["-.409298630674160700","51.600494576500000000"],
  "zone" : 6
},
{
  "name":"Notting Hill Gate Station",
  "address":"Notting Hill Gate Station, London Underground Ltd., Notting Hill Gate, London, W11 3HT",
  "coordinates":["-.196537685407762500","51.509063533643740000"],
  "zone" : 1
},
{
  "name":"Oakwood Station",
  "address":"Oakwood Station, London Underground Ltd., Bramley Rd, London, N14 4UT",
  "coordinates":["-.131841721300937210","51.647583649194110000"],
  "zone" : 5
},
{
  "name":"Old Street Station",
  "address":"Old Street Station, London Underground Ltd., Old St, London, EC1V 9NR",
  "coordinates":["-.087549731436462540","51.525601323369810000"],
  "zone" : 1
},
{
  "name":"Osterley Station",
  "address":"Osterley Station, London Underground Ltd., Great West Rd, Isleworth, Middx, TW7 4PU",
  "coordinates":["-.351994404645611300","51.480928804588714000"],
  "zone" : 4
},
{
  "name":"Oval Station",
  "address":"Oval Station, London Underground Ltd., 318 Kennington Park Rd, London, SE11 4PP",
  "coordinates":["-.112893408798067650","51.482105452338025000"],
  "zone" : 2
},
{
  "name":"Oxford Circus Station",
  "address":"Oxford Circus Station, London Underground Ltd., Oxford St, London, W1R 1AB",
  "coordinates":["-.141768983668966370","51.515123799037090000"],
  "zone" : 1
},
{
  "name":"Paddington Station",
  "address":"Paddington Underground Stations, London Underground Ltd., Praed St, London, W2",
  "coordinates":["-.175390006010324200","51.515310415793490000"],
  "zone" : 1
},
{
  "name":"Park Royal Station",
  "address":"Park Royal Station, London Underground Ltd., Western Avenue, London, W5 3EL",
  "coordinates":["-.284228015904849400","51.526901379245410000"],
  "zone" : 3
},
{
  "name":"Parsons Green Station",
  "address":"Parsons Green Station, London Underground Ltd., Parsons Green Lane, London, SW6 4HJ",
  "coordinates":["-.201234656583119650","51.475095330474790000"],
  "zone" : 2
},
{
  "name":"Perivale Station",
  "address":"Perivale Station, London Underground Ltd., Horsenden Lane, Greenford, Middx",
  "coordinates":["-.323852038492346400","51.536594089926690000"],
  "zone" : 4
},
{
  "name":"Piccadilly Circus Station",
  "address":"Piccadilly Circus Station, London Underground Ltd., Piccadilly Circus, London, W1V 9LB",
  "coordinates":["-.134006365558421630","51.510026995270750000"],
  "zone" : 1
},
{
  "name":"Pimlico Station",
  "address":"Pimlico Station, London Underground Ltd., Bessborough St, London, SW1V 2JA",
  "coordinates":["-.133748665287791170","51.489193760110520000"],
  "zone" : 1
},
{
  "name":"Pinner Station",
  "address":"Pinner Station, London Underground Ltd., Station Approach, Pinner, Middx, HA5 5LZ",
  "coordinates":["-.380919804150348800","51.592857630090860000"],
  "zone" : 5
},
{
  "name":"Plaistow Station",
  "address":"Plaistow Station, London Underground Ltd., Plaistow Rd, London, E15",
  "coordinates":[".017804698696490015","51.531218392483616000"],
  "zone" : 3
},
{
  "name":"Preston Road Station",
  "address":"Preston Road Station, London Underground Ltd., Preston Rd, Wembley, Middx, HA3 0PS",
  "coordinates":["-.295256300158967800","51.572037991815020000"],
  "zone" : 4
},
{
  "name":"Putney Bridge Station",
  "address":"Putney Bridge Station, London Underground Ltd., Station Approach, London, SW6 3UH",
  "coordinates":["-.208976678487921420","51.467902222271880000"],
  "zone" : 2
},
{
  "name":"Queensbury Station",
  "address":"Queensbury Station, London Underground Ltd., Cumberland Rd, Harrow, Middx, HA8 5NP",
  "coordinates":["-.285785681643207800","51.594347148072560000"],
  "zone" : 2
},
{
  "name":"Queensway Station",
  "address":"Queensway Station, London Underground Ltd., Bayswater Rd, London, W2 4SS",
  "coordinates":["-.187434461364574480","51.510380051624610000"],
  "zone" : 1
},
{
  "name":"Ravenscourt Park Station",
  "address":"Ravenscourt Park Station, London Underground Ltd., Ravenscourt Rd, London, W6 0UG",
  "coordinates":["-.236258353945599400","51.494136531497860000"],
  "zone" : 2
},
{
  "name":"Rayners Lane Station",
  "address":"Rayners Lane Station, London Underground Ltd., Alexandra Avenue, Harrow, Middx",
  "coordinates":["-.371005563517764870","51.574976703881340000"],
  "zone" : 5
},
{
  "name":"Redbridge Station",
  "address":"Redbridge Station, London Underground Ltd., Eastern Avenue, Ilford, Essex, IG4 5OQ",
  "coordinates":[".045423116107576156","51.576301792400690000"],
  "zone" : 4
},
{
  "name":"Regent's Park Station",
  "address":"Regent's Park Station, London Underground Ltd., Marylebone Rd, London, NW1 5HA",
  "coordinates":["-.146862634752862040","51.523505503468370000"],
  "zone" : 1
},
{
  "name":"Rickmansworth Station",
  "address":"Rickmansworth Station, London Underground Ltd., Station Approach, Rickmansworth, Herts, WD3 1QY",
  "coordinates":["-.473712107018385900","51.640272706988570000"],
  "zone" : 7
},
{
  "name":"Roding Valley Station",
  "address":"Roding Valley Station, London Underground Ltd., Station Way, Buckhurst Hill, Essex, IG9 6LN",
  "coordinates":[".043864415463376070","51.617115241205420000"],
  "zone" : 4
},
{
  "name":"Rotherhithe Station",
  "address":"Rotherhithe Station, London Underground Ltd., Brunel Rd, London, SE16 4LF",
  "coordinates":["-.052180998321318894","51.501005694266450000"],
  "zone" : 2
},
{
  "name":"Royal Oak Station",
  "address":"Royal Oak Station, London Underground Ltd., Lord Hills Bridge, London, W2 6ET",
  "coordinates":["-.188230043028310500","51.519017120333290000"],
  "zone" : 2
},
{
  "name":"Ruislip Station",
  "address":"Ruislip Station, London Underground Ltd., Station Approach, Ruislip, Middx, HA4 8LD",
  "coordinates":["-.421455074014979600","51.571449113222800000"],
  "zone" : 5
},
{
  "name":"Ruislip Gardens Station",
  "address":"Ruislip Gardens Station, London Underground Ltd., West End Rd, Ruislip, Middx, HA4 6NF",
  "coordinates":["-.411039284928411100","51.560588503076744000"],
  "zone" : 5
},
{
  "name":"Ruislip Manor Station",
  "address":"Ruislip Manor Station, London Underground Ltd., Victoria Rd, Ruislip, Middx, HA4 9AA",
  "coordinates":["-.412345792093259500","51.573187677867050000"],
  "zone" : 6
},
{
  "name":"Russell Square Station",
  "address":"Russell Square Station, London Underground Ltd., Bernard St, London, WC1N 1LG",
  "coordinates":["-.124310055647967780","51.522912845083240000"],
  "zone" : 1
},
{
  "name":"Seven Sisters Station",
  "address":"Seven Sisters Underground Station, London Underground Ltd., Seven Sisters Rd, London",
  "coordinates":["-.072491881494998600","51.583354184664740000"],
  "zone" : 3
},
{
  "name":"Shadwell Station",
  "address":"Shadwell Station, London Underground Ltd., Cable St, London, E1 2QE",
  "coordinates":["-.056904475684454184","51.511228978184640000"],
  "zone" : 2
},
{
  "name":"Sloane Square Station",
  "address":"Sloane Square Station, London Underground Ltd., Sloane Square, London, SW1W 8BB",
  "coordinates":["-.156486231690913330","51.492287824097220000"],
  "zone" : 1
},
{
  "name":"Snaresbrook Station",
  "address":"Snaresbrook Station, London Underground Ltd., Station Approach, London, E11 1QE",
  "coordinates":[".021490462438689930","51.580827019760860000"],
  "zone" : 4
},
{
  "name":"South Ealing Station",
  "address":"South Ealing Station, London Underground Ltd., South Ealing Rd, London, W5 4QB",
  "coordinates":["-.307018839246706250","51.501367936344180000"],
  "zone" : 3
},
{
  "name":"South Harrow Station",
  "address":"South Harrow Station, London Underground Ltd., South Hill Ave, Harrow, Middx, HA2 8HN",
  "coordinates":["-.352211570870426400","51.564677570548550000"],
  "zone" : 5
},
{
  "name":"South Kensington Station",
  "address":"South Kensington Station, London Underground Ltd., Pelham St, London, SW7 2NB",
  "coordinates":["-.173922310883827400","51.493999872763690000"],
  "zone" : 1
},
{
  "name":"South Ruislip Station",
  "address":"South Ruislip Station, London Underground Ltd., Station Approach, Ruislip, Middx, HA4 6DP",
  "coordinates":["-.398658757175952700","51.556516957971670000"],
  "zone" : 5
},
{
  "name":"South Wimbledon Station",
  "address":"South Wimbledon Station, London Underground Ltd., High St, London, SW19 1DE",
  "coordinates":["-.191979094023124400","51.415280365884330000"],
  "zone" : 3
},
{
  "name":"South Woodford Station",
  "address":"South Woodford Station, London Underground Ltd., George Lane, London, E18 1JJ",
  "coordinates":[".027317133742799650","51.591725648273090000"],
  "zone" : 4
},
{
  "name":"Southfields Station",
  "address":"Southfields Station, Wimbledon Park Rd, London, SW18",
  "coordinates":["-.206537544055385570","51.444931327018910000"],
  "zone" : 3
},
{
  "name":"Southgate Station",
  "address":"Southgate Station, London Underground Ltd., High St, London, N14",
  "coordinates":["-.127758393371046300","51.632319710071860000"],
  "zone" : 4
},
{
  "name":"Southwark Station",
  "address":"Southwark Station, London Underground Ltd., 68 - 70 Blackfriars Rd, London, SE1 8NW",
  "coordinates":["-.105091836006184110","51.503843006939000000"],
  "zone" : 1
},
{
  "name":"Stamford Brook Station",
  "address":"Stamford Brook Station, London Underground Ltd., Goldhawk Rd, London, W6",
  "coordinates":["-.245453795237972340","51.494796231456820000"],
  "zone" : 2
},
{
  "name":"Stanmore Station",
  "address":"Stanmore Station, London Underground Ltd., London Rd, Stanmore, Middx, HA7 4PD",
  "coordinates":["-.303108171358637650","51.619618336838600000"],
  "zone" : 5
},
{
  "name":"Stepney Green Station",
  "address":"Stepney Green Station, London Underground Ltd., Mile End Rd, London, E1 4AQ",
  "coordinates":["-.046458666350820540","51.521910629627830000"],
  "zone" : 2
},
{
  "name":"Stockwell Station",
  "address":"Stockwell Station, London Underground Ltd., Clapham Rd, London, SW9 9AE",
  "coordinates":["-.122909311662102960","51.472166538615750000"],
  "zone" : 2
},
{
  "name":"Stratford Station",
  "address":"Stratford Station BR Station St, London, E15 1DE",
  "coordinates":["-.003195329570308264","51.541309265966866000"],
  "zone" : 3
},
{
  "name":"Sudbury Hill Station",
  "address":"Sudbury Hill Underground Station, London Underground Ltd., Greenford Rd, Harrow, Middx, HA1 3RA",
  "coordinates":["-.336215632044355560","51.556996189234300000"],
  "zone" : 4
},
{
  "name":"Sudbury Town Station",
  "address":"Sudbury Town Station, London Underground Ltd., Station Approach, Wembley, Middx, HA0 2LA",
  "coordinates":["-.315482697033724100","51.550782456897100000"],
  "zone" : 4
},
{
  "name":"Surrey Quays Station",
  "address":"Surrey Quays Station, London Underground Ltd., Lower Rd, London, SE16 2UF",
  "coordinates":["-.047514931071433080","51.493193457463170000"],
  "zone" : 2
},
{
  "name":"Swiss Cottage Station",
  "address":"Swiss Cottage Station, London Underground Ltd., Finchley Rd, London, NW3 6HY",
  "coordinates":["-.174759253028733900","51.543315320154384000"],
  "zone" : 2
},
{
  "name":"Temple Station",
  "address":"Temple Station, London Underground Ltd., Victoria Embankment, London, WC2R 2PH",
  "coordinates":["-.113703089738369980","51.510969984944460000"],
  "zone" : 1
},
{
  "name":"Theydon Bois Station",
  "address":"Theydon Bois Station, London Underground Ltd., Coppice Row, Theydon Bois, Essex, CM16 7EU",
  "coordinates":[".103125376663494610","51.671711317303384000"],
  "zone" : 6
},
{
  "name":"Tooting Bec Station",
  "address":"Tooting Bec Station, London Underground Ltd., Balham High Rd, London, SW17 9AH",
  "coordinates":["-.159700539935752140","51.435759628808380000"],
  "zone" : 3
},
{
  "name":"Tooting Broadway Station",
  "address":"Tooting Broadway Station, London Underground Ltd., Tooting High St, London, SW17 0SU",
  "coordinates":["-.167976763305219070","51.427435389662655000"],
  "zone" : 3
},
{
  "name":"Tottenham Court Road Station",
  "address":"Tottenham Court Road Station, London Underground Ltd., Oxford St, London, W1",
  "coordinates":["-.130870518140944360","51.516209552513860000"],
  "zone" : 1
},
{
  "name":"Tottenham Hale Station",
  "address":"Tottenham Hale Underground Station, London Underground Ltd., Station Rd, London, N17 9LR",
  "coordinates":["-.060281116367504950","51.588045301521500000"],
  "zone" : 3
},
{
  "name":"Totteridge & Whetstone Station",
  "address":"Totteridge & Whetstone Station, London Underground Ltd., Totteridge Lane, London, N20 9QP",
  "coordinates":["-.179261212923982800","51.630207704762380000"],
  "zone" : 4
},
{
  "name":"Tower Hill Station",
  "address":"Tower Hill Station, London Underground Ltd., Trinity Square, London, EC3N 4DJ",
  "coordinates":["-.076353695174605170","51.510065953884120000"],
  "zone" : 1
},
{
  "name":"Tufnell Park Station",
  "address":"Tufnell Park Station, London Underground Ltd., Fortress Rd, London, N19 5QB",
  "coordinates":["-.137924881080636940","51.556666819988955000"],
  "zone" : 2
},
{
  "name":"Turnham Green Station",
  "address":"Turnham Green Station, London Underground Ltd., Turnham Green Terrace, London, W4 1LR",
  "coordinates":["-.254532982987942970","51.495111725298166000"],
  "zone" : 2
},
{
  "name":"Turnpike Lane Station",
  "address":"Turnpike Lane Station, London Underground Ltd., Westbury Avenue, London, N15 3NX",
  "coordinates":["-.102792275055815370","51.590296770154760000"],
  "zone" : 3
},
{
  "name":"Upminster Station",
  "address":"Upminster Station BR Station Rd, Upminster, Essex, RM14 2TD",
  "coordinates":[".251087116066800950","51.558889076169990000"],
  "zone" : 6
},
{
  "name":"Upminster Bridge Station",
  "address":"Upminster Bridge Station, London Underground Ltd., Upminster Rd, Hornchurch, Essex, RM12 6PL",
  "coordinates":[".235771220399919740","51.558750507947340000"],
  "zone" : 6
},
{
  "name":"Upney Station",
  "address":"Upney Station, London Underground Ltd., Upney Lane, Barking, Essex, IG11 9LS",
  "coordinates":[".101565625591421570","51.538335312488270000"],
  "zone" : 4
},
{
  "name":"Upton Park Station",
  "address":"Upton Park Station, London Underground Ltd., Green St, London, E13 9AP",
  "coordinates":[".035273180129164805","51.535233303921100000"],
  "zone" : 3
},
{
  "name":"Uxbridge Station",
  "address":"Uxbridge Station, London Underground Ltd., High St, Uxbridge, Middx, UB8 1JZ",
  "coordinates":["-.478139472136282440","51.546496370460570000"],
  "zone" : 6
},
{
  "name":"Vauxhall Station",
  "address":"Vauxhall Underground Station, London Underground Ltd., Vauxhall Cross, London, SE1",
  "coordinates":["-.123748951030590600","51.485733376040270000"],
  "zone" : 1
},
{
  "name":"Victoria Station",
  "address":"Victoria Underground Station, London Underground Ltd., Victoria St, London, SW1E 5ND",
  "coordinates":["-.143844854340144740","51.496342174731000000"],
  "zone" : 1
},
{
  "name":"Walthamstow Central Station",
  "address":"Walthamstow Central Station BR Hoe St, London, E17 7LP",
  "coordinates":["-.019918639025007567","51.582954705002570000"],
  "zone" : 3
},
{
  "name":"Wanstead Station",
  "address":"Wanstead Underground Station, London Underground Ltd., The Green, London, E11 2NT",
  "coordinates":[".028745919335254173","51.575521336921070000"],
  "zone" : 3
},
{
  "name":"Wapping Station",
  "address":"Wapping Station, London Underground Ltd., Wapping High St, London, E1 9NQ",
  "coordinates":["-.055846250896647850","51.504268283481814000"],
  "zone" : 2
},
{
  "name":"Warren Street Station",
  "address":"Warren Street Station, London Underground Ltd., Tottenham Court Rd, London, NW1 3AA",
  "coordinates":["-.138272313383213400","51.524511517547950000"],
  "zone" : 1
},
{
  "name":"Warwick Avenue Station",
  "address":"Warwick Avenue Station, London Underground Ltd., Warwick Avenue, London, W9 2PT",
  "coordinates":["-.183678270688914820","51.523272522746110000"],
  "zone" : 2
},
{
  "name":"Waterloo Station",
  "address":"Waterloo Underground Station, London Underground Ltd., York Rd, London, SE1 7ND",
  "coordinates":["-.114069435807659030","51.503502207173680000"],
  "zone" : 1
},
{
  "name":"Watford Station",
  "address":"Watford Station, London Underground Ltd., Cassiobury Park Avenue, Watford, Herts, WD1 7LE",
  "coordinates":["-.417280631945957540","51.657420971906490000"],
  "zone" : 7
},
{
  "name":"Wembley Park Station",
  "address":"Wembley Park Station, London Underground Ltd., Bridge Road, Wembley, Middlesex, HA9 9AA",
  "coordinates":["-.279251008726512000","51.563260483955110000"],
  "zone" : 4
},
{
  "name":"West Acton Station",
  "address":"West Acton Station, London Underground Ltd., Station Parade, London, W3 6UP",
  "coordinates":["-.280993289991878060","51.517860586187880000"],
  "zone" : 3
},
{
  "name":"West Brompton Station",
  "address":"West Brompton Station, London Underground Ltd., Old Brompton Rd, London, SW5 9JX",
  "coordinates":["-.195540834373956750","51.487256950006746000"],
  "zone" : 2
},
{
  "name":"West Finchley Station",
  "address":"West Finchley Station, London Underground Ltd., Nether Street, London, N3 1NT",
  "coordinates":["-.188468869728233300","51.609485709772600000"],
  "zone" : 4
},
{
  "name":"West Ham Station",
  "address":"West Ham Underground Station, London Underground Ltd., Manor Rd, London, E15 3BN",
  "coordinates":[".005039507096672237","51.528181772941785000"],
  "zone" : 3
},
{
  "name":"West Hampstead Station",
  "address":"West Hampstead Underground Station, London Underground Ltd., West End Lane, London, NW6 2LX",
  "coordinates":["-.190749850256434300","51.546701979094905000"],
  "zone" : 2
},
{
  "name":"West Harrow Station",
  "address":"West Harrow Station, London Underground Ltd., Vaughan Rd, Harrow, Middx, HA1 4HE",
  "coordinates":["-.352920630985434100","51.579778193709345000"],
  "zone" : 5
},
{
  "name":"West Kensington Station",
  "address":"West Kensington Station, London Underground Ltd., North End Rd, London, W14 9NL",
  "coordinates":["-.206477114705301220","51.490491685732100000"],
  "zone" : 2
},
{
  "name":"West Ruislip Station",
  "address":"West Ruislip Station, London Underground Ltd., Ickenham Rd, West Ruislip, Middlesex",
  "coordinates":["-.437886436759924000","51.569528862920430000"],
  "zone" : 6
},
{
  "name":"Westbourne Park Station",
  "address":"Westbourne Park Station, London Underground Ltd., Western Rd, London, W11 1AB",
  "coordinates":["-.200883771467904430","51.520920849526010000"],
  "zone" : 2
},
{
  "name":"Westminster Station",
  "address":"Westminster Station, London Underground Ltd., Bridge St, London, SW1A 2JR",
  "coordinates":["-.124818265200698930","51.501084583446460000"],
  "zone" : 1
},
{
  "name":"White City Station",
  "address":"White City Station, London Underground Ltd., Wood Lane, London, W12 7RH",
  "coordinates":["-.224254319227984920","51.511978113587034000"],
  "zone" : 2
},
{
  "name":"Whitechapel Station",
  "address":"Whitechapel Station, London Underground Ltd., 277 Whitechapel Rd, London, E1 1BY",
  "coordinates":["-.059984982962259466","51.519455246890790000"],
  "zone" : 2
},
{
  "name":"Willesden Green Station",
  "address":"Willesden Green Station, London Underground Ltd., Walm Lane, London, NW2 4QT",
  "coordinates":["-.222410152080799300","51.549308888247985000"],
  "zone" : 2
},
{
  "name":"Wimbledon Park Station",
  "address":"Wimbledon Park Station, Arthur Rd, London, SW19",
  "coordinates":["-.199595272173123170","51.434464186025440000"],
  "zone" : 3
},
{
  "name":"Wood Green Station",
  "address":"Wood Green Station, London Underground Ltd., High Rd, Wood Green, London, N22 4HH",
  "coordinates":["-.109626380548445640","51.597476031308410000"],
  "zone" : 3
},
{
  "name":"Woodford Station",
  "address":"Woodford Station, London Underground Ltd., Snakes Lane, Woodford Green, Essex",
  "coordinates":[".034037144154079255","51.607033365181010000"],
  "zone" : 4
},
{
  "name":"Woodside Park Station",
  "address":"Woodside Park Station, London Underground Ltd., Woodside Park Rd, London, N12 8SE",
  "coordinates":["-.185421027508838540","51.617811407382945000"],
  "zone" : 4
},
{
  "name":"All Saints Station",
  "address":"London Underground, 55 Broadway, London, SW1H 0BD",
  "coordinates":["-.012751749577122285","51.511010078082435000"],
  "zone" : 2
},
{
  "name":"Beckton Station",
  "address":"London Underground, 55 Broadway, London, SW1H 0BD",
  "coordinates":[".060942442359961540","51.515133282604730000"],
  "zone" : 3
},
{
  "name":"Beckton Park Station",
  "address":"London Underground, 55 Broadway, London, SW1H 0BD",
  "coordinates":[".054897746701542370","51.508943792676580000"],
  "zone" : 3
},
{
  "name":"Blackwall Station",
  "address":"London Underground, 55 Broadway, London, SW1H 0BD",
  "coordinates":["-.007108496961494498","51.508216114618390000"],
  "zone" : 2
},
{
  "name":"Bow Church Station",
  "address":"London Underground, 55 Broadway, London, SW1H 0BD",
  "coordinates":["-.020691424393872180","51.527333106708156000"],
  "zone" : 2
},
{
  "name":"Bromley-By-Bow Station",
  "address":"London Underground, 55 Broadway, London, SW1H 0BD",
  "coordinates":["-.011661937058285864","51.524769937557340000"],
  "zone" : 2
},
{
  "name":"Crossharbour & London Arena Station",
  "address":"London Underground, 55 Broadway, London, SW1H 0BD",
  "coordinates":["-.014614325661385941","51.495698374116300000"],
  "zone" : 2
},
{
  "name":"Custom House Station",
  "address":"London Underground, 55 Broadway, London, SW1H 0BD",
  "coordinates":[".027684411363851222","51.509543816964380000"],
  "zone" : 3
},
{
  "name":"Cutty Sark Station",
  "address":"London Underground, 55 Broadway, London, SW1H 0BD",
  "coordinates":["-.010858772708086980","51.481694371850814000"],
  "zone" : 3
},
{
  "name":"Cyprus Station",
  "address":"London Underground, 55 Broadway, London, SW1H 0BD",
  "coordinates":[".063538519717122620","51.508791930274770000"],
  "zone" : 3
},
{
  "name":"Deptford Bridge Station",
  "address":"London Underground, 55 Broadway, London, SW1H 0BD",
  "coordinates":["-.021550621322944774","51.474284721273506000"],
  "zone" : 2
},
{
  "name":"Devons Road Station",
  "address":"London Underground, 55 Broadway, London, SW1H 0BD",
  "coordinates":["-.017224616322978142","51.522175080544790000"],
  "zone" : 2
},
{
  "name":"East India Station",
  "address":"London Underground, 55 Broadway, London, SW1H 0BD",
  "coordinates":["-.002748663563422358","51.509041249107980000"],
  "zone" : 2
},
{
  "name":"Edgware Road Bakerloo Station",
  "address":"London Underground, 55 Broadway, London, SW1H 0BD",
  "coordinates":["-.170135073011915440","51.520183893832000000"],
  "zone" : 1
},
{
  "name":"Edgware Road Circle Station",
  "address":"London Underground, 55 Broadway, London, SW1H 0BD",
  "coordinates":["-.167666130737583900","51.519920474367346000"],
  "zone" : 1
},
{
  "name":"Elverson Road Station",
  "address":"London Underground, 55 Broadway, London, SW1H 0BD",
  "coordinates":["-.017467307436164158","51.468819427590320000"],
  "zone" : 2
},
{
  "name":"Gallions Reach Station",
  "address":"London Underground, 55 Broadway, London, SW1H 0BD",
  "coordinates":[".072220032947865110","51.509538091545025000"],
  "zone" : 3
},
{
  "name":"Greenwich Station",
  "address":"London Underground, 55 Broadway, London, SW1H 0BD",
  "coordinates":["-.014198816568398007","51.477757816350250000"],
  "zone" : 2
},
{
  "name":"Gunnersbury Station",
  "address":"London Underground, 55 Broadway, London, SW1H 0BD",
  "coordinates":["-.275175034795658400","51.491793104326040000"],
  "zone" : 3
},
{
  "name":"Hammersmith Station",
  "address":"London Underground, 55 Broadway, London, SW1H 0BD",
  "coordinates":["-.224930071064953470","51.493497772006556000"],
  "zone" : 2
},
{
  "name":"Hammersmith (D & P) Station",
  "address":"London Underground, 55 Broadway, London, SW1H 0BD",
  "coordinates":["-.222401730524214160","51.492569079748954000"],
  "zone" : 2
},
{
  "name":"Harlesden Station",
  "address":"London Underground, 55 Broadway, London, SW1H 0BD",
  "coordinates":["-.257502755154927540","51.536192910154740000"],
  "zone" : 3
},
{
  "name":"Harrow & Wealdstone Station",
  "address":"London Underground, 55 Broadway, London, SW1H 0BD",
  "coordinates":["-.335231166241641700","51.592208827964880000"],
  "zone" : 5
},
{
  "name":"Harrow on the Hill Station",
  "address":"London Underground, 55 Broadway, London, SW1H 0BD",
  "coordinates":["-.337015904256826800","51.579328867281140000"],
  "zone" : 5
},
{
  "name":"Heathrow Terminals 1, 2, 3 Station",
  "address":"London Underground, 55 Broadway, London, SW1H 0BD",
  "coordinates":["-.452439130961683100","51.471219210060410000"],
  "zone" : 6
},
{
  "name":"Heron Quays Station",
  "address":"London Underground, 55 Broadway, London, SW1H 0BD",
  "coordinates":["-.021744064999687465","51.503067915299190000"],
  "zone" : 2
},
{
  "name":"Island Gardens Station",
  "address":"London Underground, 55 Broadway, London, SW1H 0BD",
  "coordinates":["-.009489509781986224","51.486671636732005000"],
  "zone" : 2
},
{
  "name":"Kensal Green Station",
  "address":"London Underground, 55 Broadway, London, SW1H 0BD",
  "coordinates":["-.224716964703163850","51.530457666116990000"],
  "zone" : 2
},
{
  "name":"Kensington (Olympia) Station",
  "address":"London Underground, 55 Broadway, London, SW1H 0BD",
  "coordinates":["-.210382523117471270","51.497809167384910000"],
  "zone" : 2
},
{
  "name":"Kenton Station",
  "address":"London Underground, 55 Broadway, London, SW1H 0BD",
  "coordinates":["-.317164405857978500","51.581788462601410000"],
  "zone" : 4
},
{
  "name":"Kew Gardens Station",
  "address":"London Underground, 55 Broadway, London, SW1H 0BD",
  "coordinates":["-.285252328214689150","51.477029930152850000"],
  "zone" : 3
},
{
  "name":"King's Cross St. Pancras Station",
  "address":"London Underground, 55 Broadway, London, SW1H 0BD",
  "coordinates":["-.123857948142452990","51.530397237917526000"],
  "zone" : 1
},
{
  "name":"Lewisham Station",
  "address":"London Underground, 55 Broadway, London, SW1H 0BD",
  "coordinates":["-.014706587477352798","51.466074537491664000"],
  "zone" : 2
},
{
  "name":"Limehouse Station",
  "address":"London Underground, 55 Broadway, London, SW1H 0BD",
  "coordinates":["-.039712576574314410","51.512498517496160000"],
  "zone" : 2
},
{
  "name":"Mudchute Station",
  "address":"London Underground, 55 Broadway, London, SW1H 0BD",
  "coordinates":["-.015091214701629630","51.490364179631120000"],
  "zone" : 2
},
{
  "name":"New Cross Station",
  "address":"London Underground, 55 Broadway, London, SW1H 0BD",
  "coordinates":["-.032594570758595160","51.476674202455730000"],
  "zone" : 2
},
{
  "name":"New Cross Gate Station",
  "address":"London Underground, 55 Broadway, London, SW1H 0BD",
  "coordinates":["-.040299579158885705","51.475337384701450000"],
  "zone" : 2
},
{
  "name":"North Wembley Station",
  "address":"London Underground, 55 Broadway, London, SW1H 0BD",
  "coordinates":["-.304155735382629300","51.562490285575436000"],
  "zone" : 4
},
{
  "name":"Poplar Station",
  "address":"London Underground, 55 Broadway, London, SW1H 0BD",
  "coordinates":["-.017228773736863470","51.507488443277030000"],
  "zone" : 2
},
{
  "name":"Prince Regent Station",
  "address":"London Underground, 55 Broadway, London, SW1H 0BD",
  "coordinates":[".033295484514232420","51.509320665460960000"],
  "zone" : 3
},
{
  "name":"Pudding Mill Lane Station",
  "address":"London Underground, 55 Broadway, London, SW1H 0BD",
  "coordinates":["-.013174228379466220","51.534400840867900000"],
  "zone" : 2
},
{
  "name":"Queen's Park Station",
  "address":"London Underground, 55 Broadway, London, SW1H 0BD",
  "coordinates":["-.204704090234202700","51.534100903446934000"],
  "zone" : 2
},
{
  "name":"Richmond Station",
  "address":"London Underground, 55 Broadway, London, SW1H 0BD",
  "coordinates":["-.301754217686892100","51.463159640859740000"],
  "zone" : 4
},
{
  "name":"Royal Albert Station",
  "address":"London Underground, 55 Broadway, London, SW1H 0BD",
  "coordinates":[".046216593557986540","51.508196344367040000"],
  "zone" : 3
},
{
  "name":"Royal Victoria Station",
  "address":"London Underground, 55 Broadway, London, SW1H 0BD",
  "coordinates":[".018078557359541534","51.509062110622175000"],
  "zone" : 3
},
{
  "name":"Shepherd's Bush Central Station",
  "address":"London Underground, 55 Broadway, London, SW1H 0BD",
  "coordinates":["-.226305459017774930","51.505560868490754000"],
  "zone" : 2
},
{
  "name":"Shepherd's Bush Hammersmith & City Station",
  "address":"London Underground, 55 Broadway, London, SW1H 0BD",
  "coordinates":["-.226305459017774930","51.505560868490754000"],
  "zone" : 2
},
{
  "name":"South Kenton Station",
  "address":"London Underground, 55 Broadway, London, SW1H 0BD",
  "coordinates":["-.308588675020215030","51.570171686871360000"],
  "zone" : 4
},
{
  "name":"South Quay Station",
  "address":"London Underground, 55 Broadway, London, SW1H 0BD",
  "coordinates":["-.019101694079593993","51.500532011008650000"],
  "zone" : 2
},
{
  "name":"St. James's Park Station",
  "address":"London Underground, 55 Broadway, London, SW1H 0BD",
  "coordinates":["-.134183744115531720","51.499345456140375000"],
  "zone" : 1
},
{
  "name":"St. John's Wood Station",
  "address":"London Underground, 55 Broadway, London, SW1H 0BD",
  "coordinates":["-.174172356336729750","51.534564516315330000"],
  "zone" : 2
},
{
  "name":"St. Paul's Station",
  "address":"London Underground, 55 Broadway, London, SW1H 0BD",
  "coordinates":["-.097573654477604190","51.514801296733296000"],
  "zone" : 1
},
{
  "name":"Stonebridge Park Station",
  "address":"London Underground, 55 Broadway, London, SW1H 0BD",
  "coordinates":["-.275409247579834260","51.543922285834710000"],
  "zone" : 3
},
{
  "name":"Tower Gateway Station",
  "address":"London Underground, 55 Broadway, London, SW1H 0BD",
  "coordinates":["-.074530960965560940","51.510566638763080000"],
  "zone" : 1
},
{
  "name":"Wembley Central Station",
  "address":"London Underground, 55 Broadway, London, SW1H 0BD",
  "coordinates":["-.296859445373195800","51.552329965978000000"],
  "zone" : 4
},
{
  "name":"West India Quay Station",
  "address":"London Underground, 55 Broadway, London, SW1H 0BD",
  "coordinates":["-.020148081137071500","51.506638439327860000"],
  "zone" : 2
},
{
  "name":"Westferry Station",
  "address":"London Underground, 55 Broadway, London, SW1H 0BD",
  "coordinates":["-.025791956499847963","51.509431782335305000"],
  "zone" : 2
},
{
  "name":"Willesden Junction Station",
  "address":"London Underground, 55 Broadway, London, SW1H 0BD",
  "coordinates":["-.244288894517034600","51.532191497103640000"],
  "zone" : 2
},
{
  "name":"Wimbledon Station",
  "address":"London Underground, 55 Broadway, London, SW1H 0BD",
  "coordinates":["-.206381586903591980","51.421383719531770000"],
  "zone" : 3
}
]

